[{"name":"Ordinace Lhotka s.r.o.","address":"Zárubova 498/31, 14200 Praha 4","lat":50.0152376,"lng":14.4352075},{"name":"GM PRAKTIK s.r.o.","address":"Třída Tomáše Bati 3910,Zlín 76001","lat":49.2215162,"lng":17.6560627},{"name":"MUDr.Nedelkova, s.r.o, ordinace PLDD ","address":"Italska 384/3 120 00 Praha 2","lat":50.0762457,"lng":14.4348404},{"name":"Cévní Centrum České Budějovice ","address":"Ceske vrbne 2403, ceske budejovice","lat":48.9997054,"lng":14.4499779},{"name":"Můj zubař s.r.o.","address":"Topolová 340, 50003, Hradec Králové","lat":50.2189719,"lng":15.857845},{"name":"MUDr. Jan Kovář","address":"nám. Svobody 36, Volyně 387 01","lat":49.1654603,"lng":13.8861749},{"name":"Praktický lékař Šrajerová s.r.o.","address":"Seydlerova 2451","lat":50.0507585,"lng":14.3470821},{"name":"MUDr.Hlavenková Pavlína,stomatolog.ordinace","address":"Štěpánská 903,75501 Vsetín","lat":49.33573060000001,"lng":17.9871419},{"name":"MUDr. Jan Jehlík, praktický lékař pro děti a dorost s.r.o.","address":"Tyršova 493, 341 01 Horažďovice","lat":49.321655,"lng":13.7097156}]